{
"type": "FeatureCollection",
"crs": { "type": "name", "properties": { "name": "urn:ogc:def:crs:OGC:1.3:CRS84" } },
"features": [
{ "type": "Feature", "properties": { "Obj_idnr": 60280, "Kommun": "Sävsjö", "Lokalnamn": "Lundholmen, Vrigstad", "Xkoord": 6356436.0, "Ykoord": 466899.0, "Tradslag": "Ek-släktet", "Stamomkret": 570, "Tradstatus": "Låg vitalitet" }, "geometry": { "type": "Point", "coordinates": [ 14.44993684012652, 57.349594271917098 ] } },
{ "type": "Feature", "properties": { "Obj_idnr": 61337, "Kommun": "Sävsjö", "Lokalnamn": "Granmon", "Xkoord": 6360803.0, "Ykoord": 466858.0, "Tradslag": "Ek-släktet", "Stamomkret": 509, "Tradstatus": "Friskt" }, "geometry": { "type": "Point", "coordinates": [ 14.448667475278606, 57.388818048841792 ] } },
{ "type": "Feature", "properties": { "Obj_idnr": 72041, "Kommun": "Sävsjö", "Lokalnamn": "Hulta", "Xkoord": 6361007.0, "Ykoord": 487602.0, "Tradslag": "Ask", "Stamomkret": 566, "Tradstatus": "Friskt" }, "geometry": { "type": "Point", "coordinates": [ 14.793738553197691, 57.391688274485468 ] } },
{ "type": "Feature", "properties": { "Obj_idnr": 59305, "Kommun": "Sävsjö", "Lokalnamn": "Horveryd, Granmon", "Xkoord": 6360886.0, "Ykoord": 466846.0, "Tradslag": "Ek-släktet", "Stamomkret": 510, "Tradstatus": "Friskt" }, "geometry": { "type": "Point", "coordinates": [ 14.448456664504691, 57.389562723403095 ] } },
{ "type": "Feature", "properties": { "Obj_idnr": 67921, "Kommun": "Sävsjö", "Lokalnamn": "Uppåkra", "Xkoord": 6363217.0, "Ykoord": 482338.0, "Tradslag": "Bok", "Stamomkret": 520, "Tradstatus": "Friskt" }, "geometry": { "type": "Point", "coordinates": [ 14.706005298018342, 57.411366409061614 ] } },
{ "type": "Feature", "properties": { "Obj_idnr": 87724, "Kommun": "Sävsjö", "Lokalnamn": "Norragården", "Xkoord": 6354602.0, "Ykoord": 466033.0, "Tradslag": "Ek-släktet", "Stamomkret": 523, "Tradstatus": "Friskt" }, "geometry": { "type": "Point", "coordinates": [ 14.435799337257304, 57.33305655175262 ] } },
{ "type": "Feature", "properties": { "Obj_idnr": 101366, "Kommun": "Sävsjö", "Lokalnamn": "Möcklehult", "Xkoord": 6335967.0, "Ykoord": 466144.0, "Tradslag": "Rönn", "Stamomkret": 717, "Tradstatus": "Friskt" }, "geometry": { "type": "Point", "coordinates": [ 14.440186462942572, 57.165672228577712 ] } },
{ "type": "Feature", "properties": { "Obj_idnr": 67123, "Kommun": "Sävsjö", "Lokalnamn": "Mossaryd", "Xkoord": 6361894.0, "Ykoord": 474573.0, "Tradslag": "Ek-släktet", "Stamomkret": 506, "Tradstatus": "Friskt" }, "geometry": { "type": "Point", "coordinates": [ 14.576892579621099, 57.399114503962473 ] } },
{ "type": "Feature", "properties": { "Obj_idnr": 59638, "Kommun": "Sävsjö", "Lokalnamn": "Hjälmseryds Gamla Kyrka", "Xkoord": 6351632.0, "Ykoord": 470629.0, "Tradslag": "Ek-släktet", "Stamomkret": 506, "Tradstatus": "Dött, stående träd" }, "geometry": { "type": "Point", "coordinates": [ 14.512489989155968, 57.306697013164737 ] } },
{ "type": "Feature", "properties": { "Obj_idnr": 68286, "Kommun": "Sävsjö", "Lokalnamn": "Lundholmen", "Xkoord": 6356473.0, "Ykoord": 467324.0, "Tradslag": "Ek-släktet", "Stamomkret": 503, "Tradstatus": "Friskt" }, "geometry": { "type": "Point", "coordinates": [ 14.456994101216303, 57.349957289152805 ] } },
{ "type": "Feature", "properties": { "Obj_idnr": 68292, "Kommun": "Sävsjö", "Lokalnamn": "Lundholmen", "Xkoord": 6356560.0, "Ykoord": 467342.0, "Tradslag": "Ek-släktet", "Stamomkret": 557, "Tradstatus": "Friskt" }, "geometry": { "type": "Point", "coordinates": [ 14.457281677450119, 57.350740063533507 ] } },
{ "type": "Feature", "properties": { "Obj_idnr": 68298, "Kommun": "Sävsjö", "Lokalnamn": "Lundholmen", "Xkoord": 6356515.0, "Ykoord": 467379.0, "Tradslag": "Ek-släktet", "Stamomkret": 522, "Tradstatus": "Klart försämrad" }, "geometry": { "type": "Point", "coordinates": [ 14.457902478052018, 57.350338496667916 ] } },
{ "type": "Feature", "properties": { "Obj_idnr": 68323, "Kommun": "Sävsjö", "Lokalnamn": "Lundholmen", "Xkoord": 6356507.0, "Ykoord": 467220.0, "Tradslag": "Alm-släktet", "Stamomkret": 517, "Tradstatus": "Friskt" }, "geometry": { "type": "Point", "coordinates": [ 14.455261407538865, 57.350255230203175 ] } },
{ "type": "Feature", "properties": { "Obj_idnr": 67449, "Kommun": "Sävsjö", "Lokalnamn": "Nöbbele", "Xkoord": 6360554.0, "Ykoord": 473356.0, "Tradslag": "Ask", "Stamomkret": 578, "Tradstatus": "Friskt" }, "geometry": { "type": "Point", "coordinates": [ 14.556787568909025, 57.387008111072262 ] } },
{ "type": "Feature", "properties": { "Obj_idnr": 67469, "Kommun": "Sävsjö", "Lokalnamn": "Nöbbele", "Xkoord": 6360572.0, "Ykoord": 473261.0, "Tradslag": "Ask", "Stamomkret": 514, "Tradstatus": "Klart försämrad" }, "geometry": { "type": "Point", "coordinates": [ 14.555205377634417, 57.387164228601655 ] } },
{ "type": "Feature", "properties": { "Obj_idnr": 54684, "Kommun": "Sävsjö", "Lokalnamn": "Hylte", "Xkoord": 6370132.0, "Ykoord": 472757.0, "Tradslag": "Sälg", "Stamomkret": 530, "Tradstatus": "Friskt" }, "geometry": { "type": "Point", "coordinates": [ 14.545759318739975, 57.473007879395809 ] } },
{ "type": "Feature", "properties": { "Obj_idnr": 99728, "Kommun": "Sävsjö", "Lokalnamn": "Brohult", "Xkoord": 6348153.0, "Ykoord": 471441.0, "Tradslag": "Skogsek", "Stamomkret": 527, "Tradstatus": "Friskt" }, "geometry": { "type": "Point", "coordinates": [ 14.526368961913185, 57.275497495231079 ] } },
{ "type": "Feature", "properties": { "Obj_idnr": 100828, "Kommun": "Sävsjö", "Lokalnamn": "Sandvik", "Xkoord": 6341527.0, "Ykoord": 477599.0, "Tradslag": "Bok", "Stamomkret": 577, "Tradstatus": "Friskt" }, "geometry": { "type": "Point", "coordinates": [ 14.629090563169594, 57.216319726602677 ] } },
{ "type": "Feature", "properties": { "Obj_idnr": 71794, "Kommun": "Sävsjö", "Lokalnamn": "Kuppängen", "Xkoord": 6361637.0, "Ykoord": 487335.0, "Tradslag": "Ek-släktet", "Stamomkret": 525, "Tradstatus": "Friskt" }, "geometry": { "type": "Point", "coordinates": [ 14.789264121605237, 57.397340124324302 ] } },
{ "type": "Feature", "properties": { "Obj_idnr": 67658, "Kommun": "Sävsjö", "Lokalnamn": "Nilsgården", "Xkoord": 6362671.0, "Ykoord": 476232.0, "Tradslag": "Ek-släktet", "Stamomkret": 553, "Tradstatus": "Friskt" }, "geometry": { "type": "Point", "coordinates": [ 14.604422499392916, 57.406183743554358 ] } },
{ "type": "Feature", "properties": { "Obj_idnr": 83344, "Kommun": "Sävsjö", "Lokalnamn": "Åkaköp", "Xkoord": 6361843.0, "Ykoord": 463312.0, "Tradslag": "Ek-släktet", "Stamomkret": 600, "Tradstatus": "Dött, liggande träd" }, "geometry": { "type": "Point", "coordinates": [ 14.389526475171019, 57.397887761149093 ] } },
{ "type": "Feature", "properties": { "Obj_idnr": 83359, "Kommun": "Sävsjö", "Lokalnamn": "Stora Lönshult", "Xkoord": 6359433.0, "Ykoord": 462549.0, "Tradslag": "Ek-släktet", "Stamomkret": 506, "Tradstatus": "Klart försämrad" }, "geometry": { "type": "Point", "coordinates": [ 14.377198471300735, 57.376178018863023 ] } },
{ "type": "Feature", "properties": { "Obj_idnr": 95784, "Kommun": "Sävsjö", "Lokalnamn": "Toraliden", "Xkoord": 6342844.0, "Ykoord": 484425.0, "Tradslag": "Lind-släktet", "Stamomkret": 533, "Tradstatus": "Friskt" }, "geometry": { "type": "Point", "coordinates": [ 14.742029406389758, 57.228433319967948 ] } },
{ "type": "Feature", "properties": { "Obj_idnr": 98886, "Kommun": "Sävsjö", "Lokalnamn": "Västra Mo", "Xkoord": 6345914.0, "Ykoord": 468334.0, "Tradslag": "Lind-släktet", "Stamomkret": 510, "Tradstatus": "Friskt" }, "geometry": { "type": "Point", "coordinates": [ 14.475130012240653, 57.255180511014771 ] } },
{ "type": "Feature", "properties": { "Obj_idnr": 72902, "Kommun": "Sävsjö", "Lokalnamn": "Ormestorp", "Xkoord": 6353854.0, "Ykoord": 477301.0, "Tradslag": "Ek-släktet", "Stamomkret": 517, "Tradstatus": "Friskt" }, "geometry": { "type": "Point", "coordinates": [ 14.623026783971371, 57.327037303069616 ] } }
]
}
