{
"type": "FeatureCollection",
"crs": { "type": "name", "properties": { "name": "urn:ogc:def:crs:OGC:1.3:CRS84" } },
"features": [
{ "type": "Feature", "properties": { "Obj_idnr": 296, "Kommun": "Habo", "Lokalnamn": "Svanebacken", "Xkoord": 6442966.484, "Ykoord": 453667.912, "Tradslag": "Ek", "Stamomkret": 502, "Tradstatus": "Friskt" }, "geometry": { "type": "Point", "coordinates": [ 14.213393624062125, 58.125623868669514 ] } },
{ "type": "Feature", "properties": { "Obj_idnr": 299, "Kommun": "Habo", "Lokalnamn": "Svanebacken", "Xkoord": 6443054.479, "Ykoord": 453586.894, "Tradslag": "Ek", "Stamomkret": 640, "Tradstatus": "Friskt" }, "geometry": { "type": "Point", "coordinates": [ 14.212000836795408, 58.126405662974875 ] } },
{ "type": "Feature", "properties": { "Obj_idnr": 350, "Kommun": "Habo", "Lokalnamn": "Skämningsfors", "Xkoord": 6440878.892, "Ykoord": 452709.271, "Tradslag": "Ask", "Stamomkret": 502, "Tradstatus": "Friskt" }, "geometry": { "type": "Point", "coordinates": [ 14.197541514936685, 58.106773767083936 ] } },
{ "type": "Feature", "properties": { "Obj_idnr": 28746, "Kommun": "Habo", "Lokalnamn": "Tranemaden", "Xkoord": 6416165.029, "Ykoord": 438523.419, "Tradslag": "Ask", "Stamomkret": 580, "Tradstatus": "Friskt" }, "geometry": { "type": "Point", "coordinates": [ 13.963301319114523, 57.883086615391235 ] } },
{ "type": "Feature", "properties": { "Obj_idnr": 632, "Kommun": "Habo", "Lokalnamn": "Stora Kärr", "Xkoord": 6419095.677, "Ykoord": 446480.039, "Tradslag": "Ek", "Stamomkret": 565, "Tradstatus": "Friskt" }, "geometry": { "type": "Point", "coordinates": [ 14.096795878953996, 57.910431343894288 ] } },
{ "type": "Feature", "properties": { "Obj_idnr": 806, "Kommun": "Habo", "Lokalnamn": "Grönestad", "Xkoord": 6435769.937, "Ykoord": 452283.511, "Tradslag": "Ek", "Stamomkret": 592, "Tradstatus": "Klart försämrad" }, "geometry": { "type": "Point", "coordinates": [ 14.191356283973041, 58.060844362512782 ] } },
{ "type": "Feature", "properties": { "Obj_idnr": 9762, "Kommun": "Habo", "Lokalnamn": "Gård längs Kärnekullavägen, Habo", "Xkoord": 6417568.452, "Ykoord": 446658.181, "Tradslag": "Ask", "Stamomkret": 675, "Tradstatus": "Friskt" }, "geometry": { "type": "Point", "coordinates": [ 14.100144676517283, 57.896736542567879 ] } },
{ "type": "Feature", "properties": { "Obj_idnr": 922, "Kommun": "Habo", "Lokalnamn": "Kyrkbyn", "Xkoord": 6440084.211, "Ykoord": 452289.946, "Tradslag": "Ek", "Stamomkret": 600, "Tradstatus": "Dött, liggande träd" }, "geometry": { "type": "Point", "coordinates": [ 14.190588682629794, 58.099591744624234 ] } },
{ "type": "Feature", "properties": { "Obj_idnr": 2194, "Kommun": "Habo", "Lokalnamn": "Kvisseln", "Xkoord": 6429853.194, "Ykoord": 441379.819, "Tradslag": "Ask", "Stamomkret": 611, "Tradstatus": "Friskt" }, "geometry": { "type": "Point", "coordinates": [ 14.008074571241815, 58.006401200553704 ] } },
{ "type": "Feature", "properties": { "Obj_idnr": 998, "Kommun": "Habo", "Lokalnamn": "Häldeholm", "Xkoord": 6437891.0, "Ykoord": 452940.0, "Tradslag": "Ek", "Stamomkret": 527, "Tradstatus": "Klart försämrad" }, "geometry": { "type": "Point", "coordinates": [ 14.202055612240651, 58.079963941409119 ] } },
{ "type": "Feature", "properties": { "Obj_idnr": 1030, "Kommun": "Habo", "Lokalnamn": "Häldeholm", "Xkoord": 6438124.215, "Ykoord": 452891.123, "Tradslag": "Ek", "Stamomkret": 581, "Tradstatus": "Klart försämrad" }, "geometry": { "type": "Point", "coordinates": [ 14.20118015772273, 58.082053268832745 ] } },
{ "type": "Feature", "properties": { "Obj_idnr": 28353, "Kommun": "Habo", "Lokalnamn": "Berg", "Xkoord": 6416633.196000001, "Ykoord": 445932.645, "Tradslag": "Ask", "Stamomkret": 547, "Tradstatus": "Friskt" }, "geometry": { "type": "Point", "coordinates": [ 14.088119619780306, 57.888249656878934 ] } },
{ "type": "Feature", "properties": { "Obj_idnr": 1168, "Kommun": "Habo", "Lokalnamn": "Baskarp", "Xkoord": 6430162.237, "Ykoord": 448762.979, "Tradslag": "Ek", "Stamomkret": 654, "Tradstatus": "Friskt" }, "geometry": { "type": "Point", "coordinates": [ 14.132922004602396, 58.010089074291635 ] } },
{ "type": "Feature", "properties": { "Obj_idnr": 29417, "Kommun": "Habo", "Lokalnamn": "Dykärrs gård", "Xkoord": 6421966.359, "Ykoord": 443455.079, "Tradslag": "Bok", "Stamomkret": 706, "Tradstatus": "Friskt" }, "geometry": { "type": "Point", "coordinates": [ 14.045070365246415, 57.935839587450424 ] } },
{ "type": "Feature", "properties": { "Obj_idnr": 1309, "Kommun": "Habo", "Lokalnamn": "Björkhagen", "Xkoord": 6424261.421, "Ykoord": 447229.079, "Tradslag": "Ek", "Stamomkret": 662, "Tradstatus": "Låg vitalitet" }, "geometry": { "type": "Point", "coordinates": [ 14.108285224306863, 57.956914435767608 ] } },
{ "type": "Feature", "properties": { "Obj_idnr": 54914, "Kommun": "Habo", "Lokalnamn": "Ulvestorp", "Xkoord": 6422555.0, "Ykoord": 443605.0, "Tradslag": "Ask", "Stamomkret": 564, "Tradstatus": "Friskt" }, "geometry": { "type": "Point", "coordinates": [ 14.047461775450829, 57.941145107598857 ] } },
{ "type": "Feature", "properties": { "Obj_idnr": 1346, "Kommun": "Habo", "Lokalnamn": "Simonstorp", "Xkoord": 6422767.158, "Ykoord": 446651.158, "Tradslag": "Ek", "Stamomkret": 537, "Tradstatus": "Klart försämrad" }, "geometry": { "type": "Point", "coordinates": [ 14.098857562170213, 57.943425586369329 ] } }
]
}
